[
  {
    "title": "Thành phố Bạc Liêu",
    "longitude": 105.72504496707545,
    "latitude": 9.28256121704648,
    "region": "Đồng bằng sông Cửu Long",
    "population": "155.874"
  },
  {
    "title": "Thành phố Cần Thơ",
    "city_type": "Trực thuộc trung ương",
    "longitude": 105.7806542,
    "latitude": 10.0326291,
    "region": "Đồng bằng sông Cửu Long",
    "population": "1.252.348"
  },
  {
    "title": "Thành phố Vĩnh Long",
    "longitude": 105.9718501,
    "latitude": 10.2562605,
    "region": "Đồng bằng sông Cửu Long",
    "population": "138.981"
  },
  {
    "title": "Thành phố Rạch Giá",
    "longitude": 105.0812428,
    "latitude": 10.0178043,
    "region": "Đồng bằng sông Cửu Long",
    "population": "259.860"
  },
  {
    "title": "Thành phố Hồ Chí Minh",
    "city_type": "Trực thuộc trung ương",
    "longitude": 106.6956702,
    "latitude": 10.7791358,
    "region": "Đông Nam Bộ",
    "population": "8.9 Triệu"
  },
  {
    "title": "Thành phố Vũng Tàu",
    "longitude": 107.0825533,
    "latitude": 10.356758,
    "region": "Đông Nam Bộ",
    "population": "464.860"
  },
  {
    "title": "Thành phố Thủ Đức",
    "longitude": 106.7797199,
    "latitude": 10.862073,
    "region": "Đông Nam Bộ",
    "population": "1.2 Triệu"
  },
  {
    "title": "Thành phố Hà Giang",
    "longitude": 104.9843347,
    "latitude": 22.8235275,
    "region": "Đông Bắc Bộ",
    "population": "58.408"
  },
  {
    "title": "Thành phố Cao Bằng",
    "longitude": 106.2196395,
    "latitude": 22.6771764,
    "region": "Đông Bắc Bộ",
    "population": "73.549"
  },
  {
    "title": "Thành phố Lào Cai",
    "longitude": 103.9938291,
    "latitude": 22.4542475,
    "region": "Tây Bắc Bộ",
    "population": "130.671"
  },
  {
    "title": "Thành phố Sơn La",
    "longitude": 103.9112321,
    "latitude": 21.3206094,
    "region": "Tây Bắc Bộ",
    "population": "106.052" 
  },
  {
    "title": "Thành phố Lai Châu",
    "longitude": 103.4402548,
    "latitude": 22.3987614,
    "region": "Tây Bắc Bộ",
    "population": "42.973"
  },
  {
    "title": "Thành phố Bắc Kạn",
    "longitude": 105.833936,
    "latitude": 22.1485938,
    "region": "Đông Bắc Bộ",
    "population": "45.036"
  },
  {
    "title": "Thành phố Lạng Sơn",
    "longitude": 106.7613745,
    "latitude": 21.853667,
    "region": "Đông Bắc Bộ",
    "population": "106.879"
  },
  {
    "title": "Thành phố Tuyên Quang",
    "longitude": 105.2036836,
    "latitude": 21.8248951,
    "region": "Đông Bắc Bộ",
    "population": "147.584"
  },
  {
    "title": "Thành phố Thái Nguyên",
    "longitude": 105.8273508,
    "latitude": 21.580186,
    "region": "Đông Bắc Bộ",
    "population": "363.698"
  },
  {
    "title": "Thành phố Điện Biên Phủ",
    "longitude": 103.0150661,
    "latitude": 21.3902332,
    "region": "Tây Bắc Bộ",
    "population": "84.672"
  },
  {
    "title": "Thành phố Việt Trì",
    "longitude": 105.3943771,
    "latitude": 21.325154,
    "region": "Đông Bắc Bộ",
    "population": "219.111"
  },
  {
    "title": "Thành phố Vĩnh Yên",
    "longitude": 105.6009075,
    "latitude": 21.309827,
    "region": "Đồng bằng sông Hồng",
    "population": "124.455"
  },
  {
    "title": "Thành phố Bắc Giang",
    "longitude": 106.2019775,
    "latitude": 21.2829277,
    "region": "Đông Bắc Bộ",
    "population": "187.854"
  },
  {
    "title": "Thành phố Bắc Ninh",
    "longitude": 106.0627779,
    "latitude": 21.1756926,
    "region": "Đồng bằng sông Hồng",
    "population": "288.766"
  },
  {
    "title": "Thành phố Hà Nội",
    "city_type": "Thủ đô",
    "longitude": 105.835434,
    "latitude": 21.0283055,
    "region": "Đồng bằng sông Hồng",
    "population": "8.435.700"
  },
  {
    "title": "Thành phố Hạ Long",
    "longitude": 107.0442909,
    "latitude": 20.9709927,
    "region": "Đồng bằng sông Hồng",
    "population": "322.710"
  },
  {
    "title": "Thành phố Hải Dương",
    "longitude": 106.3143819,
    "latitude": 20.9369774,
    "region": "Đồng bằng sông Hồng",
    "population": "312.606"
  },
  {
    "title": "Thành phố Hải Phòng",
    "city_type": "Trực thuộc trung ương",
    "longitude": 106.6880151,
    "latitude": 20.8444937,
    "region": "Đồng bằng sông Hồng",
    "population": "2.310.280"
  },
  {
    "title": "Thành phố Hòa Bình",
    "longitude": 105.3384569,
    "latitude": 20.8274261,
    "region": "Tây Bắc Bộ",
    "population": "181.448"
  },
  {
    "title": "Thành phố Hưng Yên",
    "longitude": 106.057853,
    "latitude": 20.6545555,
    "region": "Đồng bằng sông Hồng",
    "population": "118.646"
  },
  {
    "title": "Thành phố Phủ Lý",
    "longitude": 105.9173225,
    "latitude": 20.5316818,
    "region": "Đồng bằng sông Hồng",
    "population": "169.589"
  },
  {
    "title": "Thành phố Thái Bình",
    "longitude": 106.3361593,
    "latitude": 20.4458396,
    "region": "Đồng bằng sông Hồng",
    "population": "206.037"
  },
  {
    "title": "Thành phố Nam Định",
    "longitude": 106.1661374,
    "latitude": 20.4223501,
    "region": "Đồng bằng sông Hồng",
    "population": "364.181"
  },
  {
    "title": "Thành phố Hoa Lư",
    "longitude": 105.9671246,
    "latitude": 20.2502887,
    "region": "Đồng bằng sông Hồng",
    "population": "319.125"
  },
  {
    "title": "Thành phố Thanh Hóa",
    "longitude": 105.7845879,
    "latitude": 19.8053632,
    "region": "Bắc Trung Bộ",
    "population": "615.106"
  },
  {
    "title": "Thành phố Vinh",
    "longitude": 105.6790357,
    "latitude": 18.6813928,
    "region": "Bắc Trung Bộ",
    "population": "580.669"
  },
  {
    "title": "Thành phố Hà Tĩnh",
    "longitude": 105.8922718,
    "latitude": 18.3457835,
    "region": "Bắc Trung Bộ",
    "population": "266.321"
  },
  {
    "title": "Thành phố Đồng Hới",
    "longitude": 106.5992316,
    "latitude": 17.4645388,
    "region": "Bắc Trung Bộ",
    "population": "136.078"
  },
  {
    "title": "Thành phố Đông Hà",
    "longitude": 107.096616,
    "latitude": 16.8132971,
    "region": "Bắc Trung Bộ",
    "population": "164.228"
  },
  {
    "title": "Thành phố Huế",
    "city_type": "Trực thuộc trung ương",
    "longitude": 107.5775054,
    "latitude": 16.4695341,
    "region": "Bắc Trung Bộ",
    "population": "1.236.393"
  }
]
